id,name.local,name.en,name.slug,code.id,zip_codes,geo.lat,geo.lon
153826002,Dapiawan,Dapiawan,dapiawan-153826002,153826002,9626,6.9644,124.4533
153826003,Elian,Elian,elian-153826003,153826003,9626,6.95722,124.44444
153826005,Gawang,Gawang,gawang-153826005,153826005,9626,6.95722,124.44444
153826007,Kabengi,Kabengi,kabengi-153826007,153826007,9626,6.95722,124.44444
153826008,Kitango,Kitango,kitango-153826008,153826008,9626,6.9483,124.4411
153826009,Kitapok,Kitapok,kitapok-153826009,153826009,9626,6.9533,124.4256
153826010,Madia,Madia,madia-153826010,153826010,9626,6.95722,124.44444
153826013,Salbu,Salbu,salbu-153826013,153826013,9626,6.9348,124.428
