id,name.local,name.en,name.slug,code.id,zip_codes,geo.lat,geo.lon
141106001,Ampucao,Ampucao,ampucao-141106001,141106001,2604,16.327,120.6552
141106002,Dalupirip,Dalupirip,dalupirip-141106002,141106002,2604,16.326,120.7241
141106003,Gumatdang,Gumatdang,gumatdang-141106003,141106003,2604,16.3948,120.6404
141106004,Loacan,Loacan,loacan-141106004,141106004,2604,16.3726,120.6128
141106005,Poblacion (Central),Poblacion (Central),poblacion-central-141106005,141106005,2604,15.5006,120.8524
141106006,Tinongdan,Tinongdan,tinongdan-141106006,141106006,2604,16.367,120.683
141106007,Tuding,Tuding,tuding-141106007,141106007,2604,16.4108,120.6422
141106008,Ucab,Ucab,ucab-141106008,141106008,2604,17.4333,120.6833
141106009,Virac,Virac,virac-141106009,141106009,2604,13.58,124.23
