id,name.local,name.en,name.slug,code.id,zip_codes,geo.lat,geo.lon
166704001,Baybay,Baybay,baybay-166704001,166704001,8424,10.0469,126.0697
166704002,Bitaug,Bitaug,bitaug-166704002,166704002,8424,6.5969,125.4581
166704006,Matin-ao,Matin-ao,matin-ao-166704006,166704006,8424,9.5433,125.4789
166704003,Poblacion 1,Poblacion 1,poblacion-1-166704003,166704003,8424,14.2983,121.0096
166704004,Poblacion 2,Poblacion 2,poblacion-2-166704004,166704004,8424,14.2949,121.0091
166704005,San Mateo,San Mateo,san-mateo-166704005,166704005,8424,14.6969,121.1219
