id,name.local,name.en,name.slug,code.id,zip_codes,geo.lat,geo.lon
166718001,Bongdo,Bongdo,bongdo-166718001,166718001,8423,11.935,125.4
166718002,Maribojoc,Maribojoc,maribojoc-166718002,166718002,8423,9.75,123.85
166718003,Nuevo Campo,Nuevo Campo,nuevo-campo-166718003,166718003,8423,9.5337,125.7308
166718005,San Juan,San Juan,san-juan-166718005,166718005,8423,14.604,121.03
166718006,Santa Cruz (Pob.),Santa Cruz (Pob.),santa-cruz-pob-166718006,166718006,8423,9.6467,125.9072
166718007,Talisay (Pob.),Talisay (Pob.),talisay-pob-166718007,166718007,8423,9.8189,125.6156
