id,name.local,name.en,name.slug,code.id,zip_codes,geo.lat,geo.lon
072203001,Compostela,Compostela,compostela-072203001,072203001,6030,7.67,126.08
072203002,Guadalupe,Guadalupe,guadalupe-072203002,072203002,6030,14.5587,121.0446
072203003,Legaspi,Legaspi,legaspi-072203003,072203003,6030,13.13,123.73
072203004,Lepanto,Lepanto,lepanto-072203004,072203004,6030,17.327,121.5541
072203005,Madridejos,Madridejos,madridejos-072203005,072203005,6030,11.27,123.73
072203006,Montpeller,Montpeller,montpeller-072203006,072203006,6030,9.95,123.55
072203007,Poblacion,Poblacion,poblacion-072203007,072203007,6030,14.33,121.08
072203008,Santa Filomena,Santa Filomena,santa-filomena-072203008,072203008,6030,18.5217,121.0787
072203009,Valencia,Valencia,valencia-072203009,072203009,6030,7.9042,125.0928
