id,name.local,name.en,name.slug,code.id,zip_codes,geo.lat,geo.lon
072202001,Atabay,Atabay,atabay-072202001,072202001,6023,9.7025,123.5072
072202002,Daan-Lungsod,Daan-Lungsod,daan-lungsod-072202002,072202002,6023,9.7167,123.5
072202003,Guiwang,Guiwang,guiwang-072202003,072202003,6023,9.6892,123.5035
072202004,Nug-as,Nug-as,nug-as-072202004,072202004,6023,9.6968,123.4415
072202005,Pasol,Pasol,pasol-072202005,072202005,6023,9.7283,123.5078
072202006,Poblacion,Poblacion,poblacion-072202006,072202006,6023,14.33,121.08
072202007,Pugalo,Pugalo,pugalo-072202007,072202007,6023,9.7167,123.5
072202008,San Agustin,San Agustin,san-agustin-072202008,072202008,6023,12.5689,122.1314
