id,name.local,name.en,name.slug,code.id,zip_codes,geo.lat,geo.lon
140109001,Bacag,Bacag,bacag-140109001,140109001,2821,17.7216,120.906
140109002,Buneg,Buneg,buneg-140109002,140109002,2821,17.6769,120.9257
140109003,Guinguinabang,Guinguinabang,guinguinabang-140109003,140109003,2821,17.7167,120.9167
140109004,Lan-ag,Lan-ag,lan-ag-140109004,140109004,2821,10.8045,122.2769
140109005,Pacoc,Pacoc,pacoc-140109005,140109005,2821,17.667,120.95
140109006,Poblacion (Talampac),Poblacion (Talampac),poblacion-talampac-140109006,140109006,2821,14.33,121.08
