id,name.local,name.en,name.slug,code.id,zip_codes,geo.lat,geo.lon
020905001,Chavayan,Chavayan,chavayan-020905001,020905001,3904,20.2849,121.8708
020905002,Malakdang (Pob.),Malakdang (Pob.),malakdang-pob-020905002,020905002,3904,20.333,121.867
020905003,Nakanmuan,Nakanmuan,nakanmuan-020905003,020905003,3904,20.325,121.8384
020905004,Savidug,Savidug,savidug-020905004,020905004,3904,20.3109,121.8876
020905005,Sinakan (Pob.),Sinakan (Pob.),sinakan-pob-020905005,020905005,3904,20.333,121.867
020905006,Sumnanga,Sumnanga,sumnanga-020905006,020905006,3904,20.3006,121.8431
