id,name.local,name.en,name.slug,code.id,zip_codes,geo.lat,geo.lon
051609001,Asdum,Asdum,asdum-051609001,051609001,4609,14.0925,122.8522
051609002,Cabanbanan,Cabanbanan,cabanbanan-051609002,051609002,4609,14.1133,122.8825
051609003,Calabagas,Calabagas,calabagas-051609003,051609003,4609,14.1167,122.8667
051609004,Fabrica,Fabrica,fabrica-051609004,051609004,4609,14.3016,122.6841
051609005,Iraya Sur,Iraya Sur,iraya-sur-051609005,051609005,4609,14.0725,122.8683
051609006,Man-Ogob,Man-Ogob,man-ogob-051609006,051609006,4609,14.1,122.8667
051609007,Poblacion District I (Silangan/Bgy. 1),Poblacion District I (Silangan/Bgy. 1),poblacion-district-i-silanganbgy-1-051609007,051609007,4609,14.33,121.08
051609008,Poblacion District II (Kanluran/Bgy. 2),Poblacion District II (Kanluran/Bgy. 2),poblacion-district-ii-kanluranbgy-2-051609008,051609008,4609,14.33,121.08
051609009,San Jose (Iraya Norte),San Jose (Iraya Norte),san-jose-iraya-norte-051609009,051609009,4609,14.1643,122.9446
