id,name.local,name.en,name.slug,code.id,zip_codes,geo.lat,geo.lon
064529001,Bandila,Bandila,bandila-064529001,064529001,6125,10.7253,123.4733
064529002,Bug-ang,Bug-ang,bug-ang-064529002,064529002,6125,10.7418,123.3933
064529003,General Luna,General Luna,general-luna-064529003,064529003,6125,13.6881,122.1708
064529004,Magticol,Magticol,magticol-064529004,064529004,6125,10.717,123.517
064529005,Poblacion,Poblacion,poblacion-064529005,064529005,6125,14.33,121.08
064529006,Salamanca,Salamanca,salamanca-064529006,064529006,6125,9.5979,123.3505
064529007,San Isidro,San Isidro,san-isidro-064529007,064529007,6125,14.4685,121.0118
064529008,San Jose,San Jose,san-jose-064529008,064529008,6125,12.3528,121.0676
064529009,Tabun-ac,Tabun-ac,tabun-ac-064529009,064529009,6125,10.7211,123.4656
