id,name.local,name.en,name.slug,code.id,zip_codes,geo.lat,geo.lon
175914001,Busay,Busay,busay-175914001,175914001,5510,12.0777,121.9506
175914002,Combot,Combot,combot-175914002,175914002,5510,12.067,121.933
175914003,Lanas,Lanas,lanas-175914003,175914003,5510,12.0495,121.9185
175914004,Pinamihagan,Pinamihagan,pinamihagan-175914004,175914004,5510,12.0334,121.9504
175914005,Poblacion (Agcogon),Poblacion (Agcogon),poblacion-agcogon-175914005,175914005,5510,14.33,121.08
