id,name.local,name.en,name.slug,code.id,zip_codes,geo.lat,geo.lon
063042001,Aripdip,Aripdip,aripdip-063042001,063042001,5039,11.167,122.833
063042002,Bagacay,Bagacay,bagacay-063042002,063042002,5039,13.0739,123.7618
063042003,Calaigang,Calaigang,calaigang-063042003,063042003,5039,11.05,122.85
063042004,Ilongbukid,Ilongbukid,ilongbukid-063042004,063042004,5039,11.0049,122.5571
063042010,Poblacion,Poblacion,poblacion-063042010,063042010,5039,14.33,121.08
063042005,Poscolon,Poscolon,poscolon-063042005,063042005,5039,11.167,122.833
063042007,San Andres,San Andres,san-andres-063042007,063042007,5039,14.5739,121.0039
063042008,San Dionisio,San Dionisio,san-dionisio-063042008,063042008,5039,14.4839,120.9925
063042009,San Florentino,San Florentino,san-florentino-063042009,063042009,5039,11.05,122.85
