id,name.local,name.en,name.slug,code.id,zip_codes,geo.lat,geo.lon
140121001,Cabayogan,Cabayogan,cabayogan-140121001,140121001,2809,17.4816,120.5807
140121002,Dalimag,Dalimag,dalimag-140121002,140121002,2809,17.49,120.5997
140121003,Langbaban,Langbaban,langbaban-140121003,140121003,2809,17.462,120.6017
140121004,Manayday,Manayday,manayday-140121004,140121004,2809,17.4728,120.6117
140121007,Pantoc,Pantoc,pantoc-140121007,140121007,2809,17.4667,120.6032
140121008,Poblacion,Poblacion,poblacion-140121008,140121008,2809,14.33,121.08
140121010,Sabtan-olo,Sabtan-olo,sabtan-olo-140121010,140121010,2809,9.933,126.083
140121012,San Marcial,San Marcial,san-marcial-140121012,140121012,2809,17.4892,120.6452
140121013,Tangbao,Tangbao,tangbao-140121013,140121013,2809,17.455,120.5998
