id,name.local,name.en,name.slug,code.id,zip_codes,geo.lat,geo.lon
153833001,Kabuling,Kabuling,kabuling-153833001,153833001,9633,6.76,124.7967
153833002,Kayaga,Kayaga,kayaga-153833002,153833002,9633,7.1133,124.8058
153833003,Kayupo (Cuyapo),Kayupo (Cuyapo),kayupo-cuyapo-153833003,153833003,9633,15.7778,120.6608
153833004,Lepak,Lepak,lepak-153833004,153833004,9633,6.7814,124.8128
153833005,Lower Dilag,Lower Dilag,lower-dilag-153833005,153833005,9633,12.8993,121.4572
153833006,Malangit,Malangit,malangit-153833006,153833006,9633,6.7397,124.7928
153833007,Pandag,Pandag,pandag-153833007,153833007,9633,6.7411,124.7827
153833008,Upper Dilag,Upper Dilag,upper-dilag-153833008,153833008,9633,17.4743,121.4893
