id,name.local,name.en,name.slug,code.id,zip_codes,geo.lat,geo.lon
045809001,Bombongan,Bombongan,bombongan-045809001,045809001,1960,14.507,121.2192
045809002,Can-Cal-Lan (Caniogan-Calero-Lanang),Can-Cal-Lan (Caniogan-Calero-Lanang),can-cal-lan-caniogan-calero-lanang-045809002,045809002,1960,14.51194,121.23889
045809003,Lagundi,Lagundi,lagundi-045809003,045809003,1960,14.5335,121.2562
045809004,Maybancal,Maybancal,maybancal-045809004,045809004,1960,14.5249,121.2299
045809005,San Guillermo,San Guillermo,san-guillermo-045809005,045809005,1960,14.4667,121.2
045809006,San Jose (Pob.),San Jose (Pob.),san-jose-pob-045809006,045809006,1960,14.5748,121.2025
045809007,San Juan (Pob.),San Juan (Pob.),san-juan-pob-045809007,045809007,1960,14.5843,121.1269
045809008,San Pedro (Pob.),San Pedro (Pob.),san-pedro-pob-045809008,045809008,1960,14.5449,121.0679
