id,name.local,name.en,name.slug,code.id,zip_codes,geo.lat,geo.lon
015524001,Abonagan,Abonagan,abonagan-015524001,015524001,2421,15.933,120.4387
015524002,Agdao,Agdao,agdao-015524002,015524002,2421,15.9187,120.3409
015524003,Alacan,Alacan,alacan-015524003,015524003,2421,15.9123,120.4097
015524004,Aliaga,Aliaga,aliaga-015524004,015524004,2421,15.8905,120.4485
015524005,Amacalan,Amacalan,amacalan-015524005,015524005,2421,15.8881,120.4379
015524006,Anolid,Anolid,anolid-015524006,015524006,2421,16.0509,120.383
015524007,Apaya,Apaya,apaya-015524007,015524007,2421,16.0252,120.4407
015524008,Asin Este,Asin Este,asin-este-015524008,015524008,2421,15.9635,120.4693
015524009,Asin Weste,Asin Weste,asin-weste-015524009,015524009,2421,15.9539,120.4552
015524010,Bacundao Este,Bacundao Este,bacundao-este-015524010,015524010,2421,15.9191,120.4904
015524011,Bacundao Weste,Bacundao Weste,bacundao-weste-015524011,015524011,2421,15.9154,120.4767
015524012,Bakitiw,Bakitiw,bakitiw-015524012,015524012,2421,15.8791,120.4591
015524013,Balite,Balite,balite-015524013,015524013,2421,15.9546,120.4803
015524014,Banawang,Banawang,banawang-015524014,015524014,2421,16.3342,119.858
015524015,Barang,Barang,barang-015524015,015524015,2421,15.9307,120.4218
015524016,Bawer,Bawer,bawer-015524016,015524016,2421,15.917,120.417
015524017,Binalay,Binalay,binalay-015524017,015524017,2421,15.9079,120.4335
015524018,Bobon,Bobon,bobon-015524018,015524018,2421,15.9249,120.443
015524019,Bolaoit,Bolaoit,bolaoit-015524019,015524019,2421,15.9322,120.4307
015524020,Bongar,Bongar,bongar-015524020,015524020,2421,15.8858,120.5019
015524021,Butao,Butao,butao-015524021,015524021,2421,16.1178,120.409
015524022,Cabatling,Cabatling,cabatling-015524022,015524022,2421,15.9236,120.421
015524023,Cabueldatan,Cabueldatan,cabueldatan-015524023,015524023,2421,15.8798,120.4017
015524026,Calbueg,Calbueg,calbueg-015524026,015524026,2421,15.9507,120.4596
015524027,Canan Norte,Canan Norte,canan-norte-015524027,015524027,2421,15.9099,120.4776
015524028,Canan Sur,Canan Sur,canan-sur-015524028,015524028,2421,15.9053,120.4867
015524029,Cawayan Bogtong,Cawayan Bogtong,cawayan-bogtong-015524029,015524029,2421,15.9474,120.4028
015524031,Don Pedro,Don Pedro,don-pedro-015524031,015524031,2421,15.8852,120.4304
015524032,Gatang,Gatang,gatang-015524032,015524032,2421,15.8644,120.4809
015524033,Goliman,Goliman,goliman-015524033,015524033,2421,15.8574,120.4567
015524034,Gomez,Gomez,gomez-015524034,015524034,2421,15.9126,120.4194
015524035,Guilig,Guilig,guilig-015524035,015524035,2421,15.9141,120.4057
015524036,Ican,Ican,ican-015524036,015524036,2421,15.9415,120.4123
015524037,Ingalagala,Ingalagala,ingalagala-015524037,015524037,2421,15.9039,120.4348
015524038,Lareg-lareg,Lareg-lareg,lareg-lareg-015524038,015524038,2421,15.908,120.4929
015524039,Lasip,Lasip,lasip-015524039,015524039,2421,15.9967,120.3602
015524040,Lepa,Lepa,lepa-015524040,015524040,2421,15.8844,120.4509
015524041,Loqueb Este,Loqueb Este,loqueb-este-015524041,015524041,2421,15.9448,120.4461
015524042,Loqueb Norte,Loqueb Norte,loqueb-norte-015524042,015524042,2421,15.9447,120.433
015524043,Loqueb Sur,Loqueb Sur,loqueb-sur-015524043,015524043,2421,15.9423,120.4435
015524044,Lunec,Lunec,lunec-015524044,015524044,2421,15.954,120.4895
015524045,Mabulitec,Mabulitec,mabulitec-015524045,015524045,2421,15.8891,120.4084
015524047,Malimpec,Malimpec,malimpec-015524047,015524047,2421,15.8477,120.407
015524048,Manggan-Dampay,Manggan-Dampay,manggan-dampay-015524048,015524048,2421,15.9409,120.4934
015524050,Nalsian Norte,Nalsian Norte,nalsian-norte-015524050,015524050,2421,15.8448,120.4508
015524051,Nalsian Sur,Nalsian Sur,nalsian-sur-015524051,015524051,2421,15.8392,120.4538
015524049,Nancapian,Nancapian,nancapian-015524049,015524049,2421,15.9167,120.4167
015524053,Nansangaan,Nansangaan,nansangaan-015524053,015524053,2421,15.9167,120.4167
015524054,Olea,Olea,olea-015524054,015524054,2421,15.8624,120.4937
015524055,Pacuan,Pacuan,pacuan-015524055,015524055,2421,15.8575,120.465
015524056,Palapar Norte,Palapar Norte,palapar-norte-015524056,015524056,2421,15.891,120.4853
015524057,Palapar Sur,Palapar Sur,palapar-sur-015524057,015524057,2421,15.8879,120.4949
015524058,Palong,Palong,palong-015524058,015524058,2421,15.8691,120.4439
015524059,Pamaranum,Pamaranum,pamaranum-015524059,015524059,2421,15.9167,120.4167
015524060,Pasima,Pasima,pasima-015524060,015524060,2421,15.9302,120.3962
015524061,Payar,Payar,payar-015524061,015524061,2421,15.8941,120.3107
015524062,Poblacion,Poblacion,poblacion-015524062,015524062,2421,15.9747,120.5637
015524063,Polong Norte,Polong Norte,polong-norte-015524063,015524063,2421,15.903,120.4215
015524064,Polong Sur,Polong Sur,polong-sur-015524064,015524064,2421,15.8952,120.4264
015524065,Potiocan,Potiocan,potiocan-015524065,015524065,2421,15.9618,120.449
015524066,San Julian,San Julian,san-julian-015524066,015524066,2421,15.8727,120.4367
015524067,Tabo-Sili,Tabo-Sili,tabo-sili-015524067,015524067,2421,15.9348,120.4517
015524069,Talospatang,Talospatang,talospatang-015524069,015524069,2421,15.917,120.4414
015524070,Taloy,Taloy,taloy-015524070,015524070,2421,15.9208,120.3367
015524071,Taloyan,Taloyan,taloyan-015524071,015524071,2421,15.9352,120.4713
015524072,Tambac,Tambac,tambac-015524072,015524072,2421,15.8216,120.4573
015524068,Tobor,Tobor,tobor-015524068,015524068,2421,15.8853,120.5114
015524073,Tolonguat,Tolonguat,tolonguat-015524073,015524073,2421,15.957,120.4609
015524074,Tomling,Tomling,tomling-015524074,015524074,2421,15.8637,120.452
015524075,Umando,Umando,umando-015524075,015524075,2421,15.8687,120.4618
015524076,Viado,Viado,viado-015524076,015524076,2421,15.9023,120.43
015524077,Waig,Waig,waig-015524077,015524077,2421,15.8757,120.4846
015524078,Warey,Warey,warey-015524078,015524078,2421,15.87,120.4307
