id,name.local,name.en,name.slug,code.id,zip_codes,geo.lat,geo.lon
137404001,Alicia,Alicia,alicia-137404001,137404001,1500,16.7787,121.6972
137404002,Amihan,Amihan,amihan-137404002,137404002,1500,14.6274,121.0675
137404003,Apolonio Samson,Apolonio Samson,apolonio-samson-137404003,137404003,1500,14.6483,121.0078
137404004,Aurora,Aurora,aurora-137404004,137404004,1500,13.35,122.52
137404005,Baesa,Baesa,baesa-137404005,137404005,1500,14.6718,121.008
137404006,Bagbag,Bagbag,bagbag-137404006,137404006,1500,16.4836,120.3607
137404008,Bagong Lipunan Ng Crame,Bagong Lipunan Ng Crame,bagong-lipunan-ng-crame-137404008,137404008,1500,16.9827,121.6111
137404009,Bagong Pag-asa,Bagong Pag-asa,bagong-pag-asa-137404009,137404009,1500,14.6622,121.0331
137404010,Bagong Silangan,Bagong Silangan,bagong-silangan-137404010,137404010,1500,14.7094,121.1
137404011,Bagumbayan,Bagumbayan,bagumbayan-137404011,137404011,1500,6.5339,124.5633
137404007,Bagumbuhay,Bagumbuhay,bagumbuhay-137404007,137404007,1500,14.6195,121.067
137404012,Bahay Toro,Bahay Toro,bahay-toro-137404012,137404012,1500,14.6702,121.019
137404013,Balingasa,Balingasa,balingasa-137404013,137404013,1500,16.697,121.6295
137404135,Balong Bato,Balong Bato,balong-bato-137404135,137404135,1500,12.2228,121.0683
137404139,Batasan Hills,Batasan Hills,batasan-hills-137404139,137404139,1500,14.6844,121.0975
137404014,Bayanihan,Bayanihan,bayanihan-137404014,137404014,1500,15.8333,121.4706
137404015,Blue Ridge A,Blue Ridge A,blue-ridge-a-137404015,137404015,1500,16.697,121.6295
137404016,Blue Ridge B,Blue Ridge B,blue-ridge-b-137404016,137404016,1500,16.697,121.6295
137404017,Botocan,Botocan,botocan-137404017,137404017,1500,14.1547,121.4988
137404018,Bungad,Bungad,bungad-137404018,137404018,1500,14.6506,121.0247
137404019,Camp Aguinaldo,Camp Aguinaldo,camp-aguinaldo-137404019,137404019,1500,16.9789,121.3272
137404136,Capri,Capri,capri-137404136,137404136,1500,14.719,121.0288
137404020,Central,Central,central-137404020,137404020,1500,7.07,125.6
137404021,Claro,Claro,claro-137404021,137404021,1500,14.6255,121.0668
137404022,Commonwealth,Commonwealth,commonwealth-137404022,137404022,1500,7.9684,123.5441
137404025,Culiat,Culiat,culiat-137404025,137404025,1500,15.7213,120.8365
137404026,Damar,Damar,damar-137404026,137404026,1500,16.697,121.6295
137404027,Damayan,Damayan,damayan-137404027,137404027,1500,11.4936,122.5531
137404028,Damayang Lagi,Damayang Lagi,damayang-lagi-137404028,137404028,1500,14.6191,121.0268
137404029,Del Monte,Del Monte,del-monte-137404029,137404029,1500,14.6418,121.0177
137404030,Dioquino Zobel,Dioquino Zobel,dioquino-zobel-137404030,137404030,1500,14.615,121.0662
137404033,Don Manuel,Don Manuel,don-manuel-137404033,137404033,1500,14.6146,121.0034
137404031,Doña Imelda,Doña Imelda,doa-imelda-137404031,137404031,1500,16.561,121.4911
137404032,Doña Josefa,Doña Josefa,doa-josefa-137404032,137404032,1500,14.6193,121.0065
137404034,Duyan-duyan,Duyan-duyan,duyan-duyan-137404034,137404034,1500,10.8446,122.4883
137404035,E. Rodriguez,E. Rodriguez,e-rodriguez-137404035,137404035,1500,14.6213,121.0543
137404036,East Kamias,East Kamias,east-kamias-137404036,137404036,1500,14.6314,121.0547
137404037,Escopa I,Escopa I,escopa-i-137404037,137404037,1500,16.697,121.6295
137404038,Escopa II,Escopa II,escopa-ii-137404038,137404038,1500,16.697,121.6295
137404039,Escopa III,Escopa III,escopa-iii-137404039,137404039,1500,16.697,121.6295
137404040,Escopa IV,Escopa IV,escopa-iv-137404040,137404040,1500,16.697,121.6295
137404041,Fairview,Fairview,fairview-137404041,137404041,1500,16.697,121.6295
137404141,Greater Lagro,Greater Lagro,greater-lagro-137404141,137404141,1500,16.697,121.6295
137404043,Gulod,Gulod,gulod-137404043,137404043,1500,14.2581,121.1663
137404140,Holy Spirit,Holy Spirit,holy-spirit-137404140,137404140,1500,16.697,121.6295
137404044,Horseshoe,Horseshoe,horseshoe-137404044,137404044,1500,14.6095,121.0454
137404045,Immaculate Concepcion,Immaculate Concepcion,immaculate-concepcion-137404045,137404045,1500,14.619,121.0461
137404046,Kaligayahan,Kaligayahan,kaligayahan-137404046,137404046,1500,14.7297,121.0461
137404047,Kalusugan,Kalusugan,kalusugan-137404047,137404047,1500,14.6227,121.0253
137404048,Kamuning,Kamuning,kamuning-137404048,137404048,1500,14.6274,121.0402
137404049,Katipunan,Katipunan,katipunan-137404049,137404049,1500,8.5134,123.2847
137404050,Kaunlaran,Kaunlaran,kaunlaran-137404050,137404050,1500,16.697,121.6295
137404024,Kristong Hari,Kristong Hari,kristong-hari-137404024,137404024,1500,14.6243,121.0336
137404051,Krus Na Ligas,Krus Na Ligas,krus-na-ligas-137404051,137404051,1500,14.6442,121.0636
137404052,Laging Handa,Laging Handa,laging-handa-137404052,137404052,1500,14.6306,121.0294
137404053,Libis,Libis,libis-137404053,137404053,1500,14.608,121.0807
137404054,Lourdes,Lourdes,lourdes-137404054,137404054,1500,8.525,124.4322
137404055,Loyola Heights,Loyola Heights,loyola-heights-137404055,137404055,1500,14.6403,121.0744
137404056,Maharlika,Maharlika,maharlika-137404056,137404056,1500,16.697,121.6295
137404057,Malaya,Malaya,malaya-137404057,137404057,1500,6.4731,124.7501
137404059,Mangga,Mangga,mangga-137404059,137404059,1500,14.6242,121.0626
137404058,Manresa,Manresa,manresa-137404058,137404058,1500,14.6402,121.0039
137404060,Mariana,Mariana,mariana-137404060,137404060,1500,14.6194,121.0347
137404061,Mariblo,Mariblo,mariblo-137404061,137404061,1500,14.6347,121.016
137404062,Marilag,Marilag,marilag-137404062,137404062,1500,14.6211,121.0703
137404063,Masagana,Masagana,masagana-137404063,137404063,1500,14.8849,120.9294
137404064,Masambong,Masambong,masambong-137404064,137404064,1500,14.4615,121.3898
137404066,Matandang Balara,Matandang Balara,matandang-balara-137404066,137404066,1500,14.6655,121.0863
137404067,Milagrosa,Milagrosa,milagrosa-137404067,137404067,1500,13.6756,122.3585
137404042,N.S. Amoranto (Gintong Silahis),N.S. Amoranto (Gintong Silahis),ns-amoranto-gintong-silahis-137404042,137404042,1500,16.697,121.6295
137404068,Nagkaisang Nayon,Nagkaisang Nayon,nagkaisang-nayon-137404068,137404068,1500,14.7258,121.0275
137404069,Nayong Kanluran,Nayong Kanluran,nayong-kanluran-137404069,137404069,1500,14.6387,121.025
137404023,New Era (Constitution Hills),New Era (Constitution Hills),new-era-constitution-hills-137404023,137404023,1500,14.6624,121.0557
137404142,North Fairview,North Fairview,north-fairview-137404142,137404142,1500,16.697,121.6295
137404070,Novaliches Proper,Novaliches Proper,novaliches-proper-137404070,137404070,1500,14.722,121.0344
137404071,Obrero,Obrero,obrero-137404071,137404071,1500,15.5252,120.9964
137404072,Old Capitol Site,Old Capitol Site,old-capitol-site-137404072,137404072,1500,16.697,121.6295
137404073,Paang Bundok,Paang Bundok,paang-bundok-137404073,137404073,1500,16.697,121.6295
137404074,Pag-ibig Sa Nayon,Pag-ibig Sa Nayon,pag-ibig-sa-nayon-137404074,137404074,1500,16.72,121.1746
137404075,Paligsahan,Paligsahan,paligsahan-137404075,137404075,1500,14.63,121.0203
137404076,Paltok,Paltok,paltok-137404076,137404076,1500,14.8597,121.0941
137404077,Pansol,Pansol,pansol-137404077,137404077,1500,14.6514,121.08
137404078,Paraiso,Paraiso,paraiso-137404078,137404078,1500,6.1012,125.3482
137404079,Pasong Putik Proper (Pasong Putik),Pasong Putik Proper (Pasong Putik),pasong-putik-proper-pasong-putik-137404079,137404079,1500,14.7309,121.0528
137404080,Pasong Tamo,Pasong Tamo,pasong-tamo-137404080,137404080,1500,14.6809,121.0673
137404138,Payatas,Payatas,payatas-137404138,137404138,1500,14.7099,121.0997
137404081,Phil-Am,Phil-Am,phil-am-137404081,137404081,1500,14.6492,121.0314
137404083,Pinagkaisahan,Pinagkaisahan,pinagkaisahan-137404083,137404083,1500,14.5229,121.0555
137404082,Pinyahan,Pinyahan,pinyahan-137404082,137404082,1500,14.64,121.0461
137404084,Project 6,Project 6,project-6-137404084,137404084,1500,14.6561,121.0408
137404085,Quirino 2-A,Quirino 2-A,quirino-2-a-137404085,137404085,1500,17.1356,121.735
137404086,Quirino 2-B,Quirino 2-B,quirino-2-b-137404086,137404086,1500,17.1356,121.735
137404087,Quirino 2-C,Quirino 2-C,quirino-2-c-137404087,137404087,1500,17.1356,121.735
137404088,Quirino 3-A,Quirino 3-A,quirino-3-a-137404088,137404088,1500,17.1356,121.735
137404089,Ramon Magsaysay,Ramon Magsaysay,ramon-magsaysay-137404089,137404089,1500,8.0053,123.4869
137404090,Roxas,Roxas,roxas-137404090,137404090,1500,11.5894,122.7511
137404091,Sacred Heart,Sacred Heart,sacred-heart-137404091,137404091,1500,14.6308,121.0383
137404092,Saint Ignatius,Saint Ignatius,saint-ignatius-137404092,137404092,1500,16.697,121.6295
137404093,Saint Peter,Saint Peter,saint-peter-137404093,137404093,1500,8.2433,125.3083
137404094,Salvacion,Salvacion,salvacion-137404094,137404094,1500,14.2927,122.6281
137404095,San Agustin,San Agustin,san-agustin-137404095,137404095,1500,12.5689,122.1314
137404096,San Antonio,San Antonio,san-antonio-137404096,137404096,1500,15.3078,120.8533
137404097,San Bartolome,San Bartolome,san-bartolome-137404097,137404097,1500,15.9161,120.6254
137404098,San Isidro,San Isidro,san-isidro-137404098,137404098,1500,14.4685,121.0118
137404099,San Isidro Labrador,San Isidro Labrador,san-isidro-labrador-137404099,137404099,1500,16.0339,120.1392
137404100,San Jose,San Jose,san-jose-137404100,137404100,1500,12.3528,121.0676
137404101,San Martin De Porres,San Martin De Porres,san-martin-de-porres-137404101,137404101,1500,14.4817,121.0425
137404102,San Roque,San Roque,san-roque-137404102,137404102,1500,12.533,124.867
137404103,San Vicente,San Vicente,san-vicente-137404103,137404103,1500,10.5281,119.2542
137404137,Sangandaan,Sangandaan,sangandaan-137404137,137404137,1500,14.6736,121.0229
137404104,Santa Cruz,Santa Cruz,santa-cruz-137404104,137404104,1500,14.5998,120.9802
137404105,Santa Lucia,Santa Lucia,santa-lucia-137404105,137404105,1500,17.1222,120.4494
137404106,Santa Monica,Santa Monica,santa-monica-137404106,137404106,1500,10.02,126.038
137404107,Santa Teresita,Santa Teresita,santa-teresita-137404107,137404107,1500,13.8664,120.9814
137404108,Santo Cristo,Santo Cristo,santo-cristo-137404108,137404108,1500,14.6603,121.03
137404065,Santo Domingo (Matalahib),Santo Domingo (Matalahib),santo-domingo-matalahib-137404065,137404065,1500,15.59,120.8786
137404109,Santo Niño,Santo Niño,santo-nio-137404109,137404109,1500,6.43,124.68
137404110,Santol,Santol,santol-137404110,137404110,1500,16.77,120.45
137404111,Sauyo,Sauyo,sauyo-137404111,137404111,1500,14.6853,121.0362
137404112,Sienna,Sienna,sienna-137404112,137404112,1500,14.6331,121.0055
137404113,Sikatuna Village,Sikatuna Village,sikatuna-village-137404113,137404113,1500,14.6381,121.059
137404114,Silangan,Silangan,silangan-137404114,137404114,1500,14.898,120.9935
137404115,Socorro,Socorro,socorro-137404115,137404115,1500,13.0583,121.4117
137404116,South Triangle,South Triangle,south-triangle-137404116,137404116,1500,14.6359,121.0369
137404117,Tagumpay,Tagumpay,tagumpay-137404117,137404117,1500,14.1932,121.2911
137404118,Talayan,Talayan,talayan-137404118,137404118,1500,6.9844,124.3564
137404119,Talipapa,Talipapa,talipapa-137404119,137404119,1500,14.6856,121.0248
137404120,Tandang Sora,Tandang Sora,tandang-sora-137404120,137404120,1500,14.6757,121.0336
137404121,Tatalon,Tatalon,tatalon-137404121,137404121,1500,14.6242,121.0153
137404122,Teachers Village East,Teachers Village East,teachers-village-east-137404122,137404122,1500,16.697,121.6295
137404123,Teachers Village West,Teachers Village West,teachers-village-west-137404123,137404123,1500,17.6,120.6667
137404124,U.P. Campus,U.P. Campus,up-campus-137404124,137404124,1500,15.6189,120.9288
137404125,U.P. Village,U.P. Village,up-village-137404125,137404125,1500,16.697,121.6295
137404126,Ugong Norte,Ugong Norte,ugong-norte-137404126,137404126,1500,14.595,121.0775
137404127,Unang Sigaw,Unang Sigaw,unang-sigaw-137404127,137404127,1500,16.697,121.6295
137404128,Valencia,Valencia,valencia-137404128,137404128,1500,7.9042,125.0928
137404129,Vasra,Vasra,vasra-137404129,137404129,1500,14.659,121.0443
137404130,Veterans Village,Veterans Village,veterans-village-137404130,137404130,1500,14.6542,121.0239
137404131,Villa Maria Clara,Villa Maria Clara,villa-maria-clara-137404131,137404131,1500,14.6089,121.0699
137404132,West Kamias,West Kamias,west-kamias-137404132,137404132,1500,14.6303,121.0493
137404133,West Triangle,West Triangle,west-triangle-137404133,137404133,1500,14.6422,121.0316
137404134,White Plains,White Plains,white-plains-137404134,137404134,1500,14.5965,121.0707
