id,name.local,name.en,name.slug,code.id,zip_codes,geo.lat,geo.lon
140120001,Bazar,Bazar,bazar-140120001,140120001,2818,17.4602,120.7866
140120002,Bilabila,Bilabila,bilabila-140120002,140120002,2818,17.5311,120.7647
140120003,Gangal (Pob.),Gangal (Pob.),gangal-pob-140120003,140120003,2818,17.4542,120.7609
140120004,Maguyepyep,Maguyepyep,maguyepyep-140120004,140120004,2818,17.4408,120.7644
140120005,Naguilian,Naguilian,naguilian-140120005,140120005,2818,17.4931,120.7617
140120006,Saccaang,Saccaang,saccaang-140120006,140120006,2818,17.467,120.767
140120007,Sallapadan,Sallapadan,sallapadan-140120007,140120007,2818,17.46,120.76
140120008,Subusob,Subusob,subusob-140120008,140120008,2818,17.5133,120.7631
140120009,Ud-udiao,Ud-udiao,ud-udiao-140120009,140120009,2818,17.4657,120.8118
