id,name.local,name.en,name.slug,code.id,zip_codes,geo.lat,geo.lon
045805014,San Andres (Pob.),San Andres (Pob.),san-andres-pob-045805014,045805014,1900,14.5739,121.0039
045805015,San Isidro,San Isidro,san-isidro-045805015,045805015,1900,14.5946,121.1894
045805016,San Juan,San Juan,san-juan-045805016,045805016,1900,14.5843,121.1269
045805017,San Roque,San Roque,san-roque-045805017,045805017,1900,14.5414,121.0668
045805018,Santa Rosa,Santa Rosa,santa-rosa-045805018,045805018,1900,14.5768,121.1222
045805020,Santo Domingo,Santo Domingo,santo-domingo-045805020,045805020,1900,15.59,120.8786
045805019,Santo Niño,Santo Niño,santo-nio-045805019,045805019,1900,14.5812,121.1215
